{
 "type": "FeatureCollection",
 "name": "roysambu_points",
 "crs": {
  "type": "name",
  "properties": {
   "name": "urn:ogc:def:crs:OGC:1.3:CRS84"
  }
 },
 "features": [
  {
   "type": "Feature",
   "properties": {
    "name": "Roysambu",
    "other_tags": "\"bus\"=>\"yes\",\"public_transport\"=>\"platform\"",
    "date": "1631491200"
   },
   "geometry": {
    "type": "Point",
    "coordinates": [
     36.8925596,
     -1.2182267
    ]
   }
  },
  {
   "type": "Feature",
   "properties": {
    "name": "Roysambu",
    "other_tags": "\"bus\"=>\"yes\",\"public_transport\"=>\"platform\"",
    "date": "1632614400"
   },
   "geometry": {
    "type": "Point",
    "coordinates": [
     36.892742,
     -1.2185699
    ]
   }
  },
  {
   "type": "Feature",
   "id": 2398701508,
   "properties": {
    "name": "exit 8",
    "other_tags": null,
    "date": "1632787200"
   },
   "geometry": {
    "type": "Point",
    "coordinates": [
     36.8938405,
     -1.2176064
    ]
   }
  },
  {
   "type": "Feature",
   "id": 2454316823,
   "properties": {
    "name": "International Centre for Insect Physiology and Ecology (ICIPE)",
    "other_tags": "\"alt_name\"=>\"ICPE\",\"office\"=>\"government\",\"website\"=>\"http://www.icipe.org/\"",
    "date": "1632355200"
   },
   "geometry": {
    "type": "Point",
    "coordinates": [
     36.8968085,
     -1.221339
    ]
   }
  },
  {
   "type": "Feature",
   "id": 2454316824,
   "properties": {
    "name": "Kenya Organic Agricultural Network",
    "other_tags": "\"alt_name\"=>\"KOAN\",\"office\"=>\"government\",\"website\"=>\"https://www.koan.co.ke/\"",
    "date": "1630540800"
   },
   "geometry": {
    "type": "Point",
    "coordinates": [
     36.8969052,
     -1.2215046
    ]
   }
  },
  {
   "type": "Feature",
   "id": 2506489232,
   "properties": {
    "name": "Regional Centre for Mapping of Resources for Development",
    "other_tags": "\"office\"=>\"ngo\",\"short_name\"=>\"RCMRD\"",
    "date": "1630713600"
   },
   "geometry": {
    "type": "Point",
    "coordinates": [
     36.8937139,
     -1.2206451
    ]
   }
  },
  {
   "type": "Feature",
   "id": 2647301202,
   "properties": {
    "name": "R&D parking lot",
    "other_tags": "\"access\"=>\"private\",\"amenity\"=>\"parking\",\"fee\"=>\"no\",\"parking\"=>\"surface\",\"park_ride\"=>\"yes\",\"surface\"=>\"paved\"",
    "date": "1631318400"
   },
   "geometry": {
    "type": "Point",
    "coordinates": [
     36.8957316,
     -1.2214302
    ]
   }
  },
  {
   "type": "Feature",
   "id": 2953872784,
   "properties": {
    "name": "Shell",
    "other_tags": "\"addr:city\"=>\"Nairobi\",\"addr:street\"=>\"Kamiti Road\",\"amenity\"=>\"fuel\",\"brand\"=>\"Shell\",\"brand:wikidata\"=>\"Q154950\",\"brand:wikipedia\"=>\"en:Royal Dutch Shell\"",
    "date": "1630886400"
   },
   "geometry": {
    "type": "Point",
    "coordinates": [
     36.8906693,
     -1.2177871
    ]
   }
  },
  {
   "type": "Feature",
   "id": 3283729136,
   "properties": {
    "name": "Standard Chartered",
    "other_tags": "\"addr:city\"=>\"Nairobi\",\"addr:street\"=>\"TRM Drive\",\"amenity\"=>\"bank\",\"atm\"=>\"yes\",\"brand\"=>\"Standard Chartered\",\"brand:wikidata\"=>\"Q548278\",\"brand:wikipedia\"=>\"en:Standard Chartered\"",
    "date": "1631059200"
   },
   "geometry": {
    "type": "Point",
    "coordinates": [
     36.888721,
     -1.2198801
    ]
   }
  },
  {
   "type": "Feature",
   "id": 3289275202,
   "properties": {
    "name": "The Mater Hospital - Satellite Clinic(TRM)",
    "other_tags": "\"addr:city\"=>\"Nairobi\",\"addr:street\"=>\"TRM Drive\",\"amenity\"=>\"clinic\",\"beds\"=>\"0\",\"healthcare\"=>\"clinic\",\"opening_hours\"=>\"Mo 09:00-23:55; Tu-Su 00:00-23:55\",\"operational_status\"=>\"operational\",\"operator:type\"=>\"religious\",\"tag\"=>\"healthcare:counselling=antenatal\"",
    "date": "1632873600"
   },
   "geometry": {
    "type": "Point",
    "coordinates": [
     36.8889635,
     -1.2198096
    ]
   }
  },
  {
   "type": "Feature",
   "id": 3289328866,
   "properties": {
    "name": "Roysambu",
    "other_tags": "\"bus\"=>\"yes\",\"public_transport\"=>\"platform\"",
    "date": "1632268800"
   },
   "geometry": {
    "type": "Point",
    "coordinates": [
     36.8909309,
     -1.2179853
    ]
   }
  },
  {
   "type": "Feature",
   "id": 3390672055,
   "properties": {
    "name": "ICIPE",
    "other_tags": "\"office\"=>\"ngo\"",
    "date": "1632096000"
   },
   "geometry": {
    "type": "Point",
    "coordinates": [
     36.8965477,
     -1.2216177
    ]
   }
  },
  {
   "type": "Feature",
   "id": 3901053604,
   "properties": {
    "name": "Happy Life Childrens' Home",
    "other_tags": "\"addr:city\"=>\"Nairobi\",\"addr:street\"=>\"Lumumba Drive\",\"amenity\"=>\"social_facility\",\"social_facility\"=>\"shelter\",\"social_facility:for\"=>\"homeless\"",
    "date": "1631923200"
   },
   "geometry": {
    "type": "Point",
    "coordinates": [
     36.8861464,
     -1.2159794
    ]
   }
  },
  {
   "type": "Feature",
   "id": 4194272131,
   "properties": {
    "name": "Roysambu",
    "other_tags": null,
    "date": "1632700800"
   },
   "geometry": {
    "type": "Point",
    "coordinates": [
     36.8867392,
     -1.2188396
    ]
   }
  },
  {
   "type": "Feature",
   "id": 4586768490,
   "properties": {
    "name": "Kasarani Police Station",
    "other_tags": "\"amenity\"=>\"police\",\"name:en\"=>\"Kasarani Police Station\"",
    "date": "1631059200"
   },
   "geometry": {
    "type": "Point",
    "coordinates": [
     36.8942535,
     -1.2195566
    ]
   }
  },
  {
   "type": "Feature",
   "id": 5405828979,
   "properties": {
    "name": "Farmer's Choice",
    "other_tags": "\"shop\"=>\"yes\"",
    "date": "1632528000"
   },
   "geometry": {
    "type": "Point",
    "coordinates": [
     36.8961412,
     -1.2166336
    ]
   }
  },
  {
   "type": "Feature",
   "id": 5526332569,
   "properties": {
    "name": "Shell Kasarani Petrol Station",
    "other_tags": "\"addr:city\"=>\"Nairobi\",\"addr:street\"=>\"Kasarani Mwiki Road\",\"amenity\"=>\"fuel\"",
    "date": "1632268800"
   },
   "geometry": {
    "type": "Point",
    "coordinates": [
     36.8958669,
     -1.2183273
    ]
   }
  },
  {
   "type": "Feature",
   "id": 5743474195,
   "properties": {
    "name": "Roysambu-Town stage",
    "other_tags": "\"bus\"=>\"yes\",\"public_transport\"=>\"platform\"",
    "date": "1632614400"
   },
   "geometry": {
    "type": "Point",
    "coordinates": [
     36.8914926,
     -1.2175606
    ]
   }
  },
  {
   "type": "Feature",
   "id": 5879385090,
   "properties": {
    "name": "Oakwood Mirema",
    "other_tags": "\"tourism\"=>\"apartment\"",
    "date": "1630800000"
   },
   "geometry": {
    "type": "Point",
    "coordinates": [
     36.8829127,
     -1.2149242
    ]
   }
  },
  {
   "type": "Feature",
   "id": 5879396687,
   "properties": {
    "name": "Royal House",
    "other_tags": "\"tourism\"=>\"apartment\"",
    "date": "1631145600"
   },
   "geometry": {
    "type": "Point",
    "coordinates": [
     36.897567,
     -1.2174987
    ]
   }
  },
  {
   "type": "Feature",
   "id": 6218081303,
   "properties": {
    "name": "Powerstar Supermarket Kasarani",
    "other_tags": "\"addr:city\"=>\"Nairobi\",\"addr:street\"=>\"Kasarani Mwiki Road\",\"shop\"=>\"supermarket\"",
    "date": "1630972800"
   },
   "geometry": {
    "type": "Point",
    "coordinates": [
     36.8968326,
     -1.2175238
    ]
   }
  },
  {
   "type": "Feature",
   "id": 6218086201,
   "properties": {
    "name": "Switch",
    "other_tags": "\"addr:city\"=>\"Nairobi\",\"addr:street\"=>\"Kasarani Mwiki Road\",\"club\"=>\"yes\"",
    "date": "1630886400"
   },
   "geometry": {
    "type": "Point",
    "coordinates": [
     36.89626,
     -1.218006
    ]
   }
  },
  {
   "type": "Feature",
   "id": 6218086202,
   "properties": {
    "name": "RCMRD",
    "other_tags": "\"office\"=>\"yes\"",
    "date": "1630800000"
   },
   "geometry": {
    "type": "Point",
    "coordinates": [
     36.8939766,
     -1.2206801
    ]
   }
  },
  {
   "type": "Feature",
   "id": 6224915414,
   "properties": {
    "name": "St Kizito Vocational Training Institute Roysambu Branch",
    "other_tags": "\"addr:city\"=>\"Nairobi\",\"addr:street\"=>\"Kamiti Road\",\"amenity\"=>\"college\"",
    "date": "1632355200"
   },
   "geometry": {
    "type": "Point",
    "coordinates": [
     36.8899834,
     -1.2189765
    ]
   }
  },
  {
   "type": "Feature",
   "id": 6224915422,
   "properties": {
    "name": "Carrefour",
    "other_tags": "\"addr:city\"=>\"Nairobi\",\"addr:street\"=>\"TRM Drive\",\"brand\"=>\"Carrefour\",\"brand:wikidata\"=>\"Q217599\",\"brand:wikipedia\"=>\"fr:Carrefour (enseigne)\",\"operator\"=>\"Groupe Carrefour\",\"operator:wikidata\"=>\"Q3117359\",\"operator:wikipedia\"=>\"fr:Groupe Carrefour\",\"shop\"=>\"supermarket\"",
    "date": "1631059200"
   },
   "geometry": {
    "type": "Point",
    "coordinates": [
     36.8890684,
     -1.2200512
    ]
   }
  },
  {
   "type": "Feature",
   "id": 6224915423,
   "properties": {
    "name": "Creamy Inn-TRM",
    "other_tags": "\"addr:city\"=>\"Nairobi\",\"addr:street\"=>\"TRM Drive\",\"amenity\"=>\"restaurant\"",
    "date": "1632182400"
   },
   "geometry": {
    "type": "Point",
    "coordinates": [
     36.8892006,
     -1.2199404
    ]
   }
  },
  {
   "type": "Feature",
   "id": 6224915424,
   "properties": {
    "name": "Galitos-TRM",
    "other_tags": "\"addr:city\"=>\"Nairobi\",\"addr:street\"=>\"TRM Drive\",\"amenity\"=>\"restaurant\"",
    "date": "1631664000"
   },
   "geometry": {
    "type": "Point",
    "coordinates": [
     36.8892305,
     -1.2198316
    ]
   }
  },
  {
   "type": "Feature",
   "id": 6224915425,
   "properties": {
    "name": "Chicken Inn TRM",
    "other_tags": "\"addr:city\"=>\"Nairobi\",\"addr:street\"=>\"TRM Drive\",\"amenity\"=>\"restaurant\"",
    "date": "1630713600"
   },
   "geometry": {
    "type": "Point",
    "coordinates": [
     36.8893073,
     -1.2197634
    ]
   }
  },
  {
   "type": "Feature",
   "id": 6224915426,
   "properties": {
    "name": "Java House -Thika Road Mall (TRM)",
    "other_tags": "\"addr:city\"=>\"Nairobi\",\"addr:street\"=>\"TRM Drive\",\"amenity\"=>\"restaurant\"",
    "date": "1631404800"
   },
   "geometry": {
    "type": "Point",
    "coordinates": [
     36.8892625,
     -1.219661
    ]
   }
  },
  {
   "type": "Feature",
   "id": 6224915428,
   "properties": {
    "name": "Urban Gourmet Burgers TRM",
    "other_tags": "\"addr:city\"=>\"Nairobi\",\"addr:street\"=>\"TRM Drive\",\"amenity\"=>\"restaurant\"",
    "date": "1632787200"
   },
   "geometry": {
    "type": "Point",
    "coordinates": [
     36.8888423,
     -1.2198593
    ]
   }
  },
  {
   "type": "Feature",
   "id": 6224915429,
   "properties": {
    "name": "ABC Bank",
    "other_tags": "\"addr:city\"=>\"Nairobi\",\"addr:street\"=>\"TRM Drive\",\"amenity\"=>\"bank\",\"atm\"=>\"yes\"",
    "date": "1631318400"
   },
   "geometry": {
    "type": "Point",
    "coordinates": [
     36.8887996,
     -1.2197058
    ]
   }
  },
  {
   "type": "Feature",
   "id": 6224915430,
   "properties": {
    "name": "Ecobank ATM Thika Rd Mall",
    "other_tags": "\"addr:city\"=>\"Nairobi\",\"addr:street\"=>\"TRM Drive\",\"amenity\"=>\"bank\"",
    "date": "1630627200"
   },
   "geometry": {
    "type": "Point",
    "coordinates": [
     36.8889511,
     -1.2198743
    ]
   }
  },
  {
   "type": "Feature",
   "id": 6224915431,
   "properties": {
    "name": "Barclays Bank - TRM",
    "other_tags": "\"addr:city\"=>\"Nairobi\",\"addr:street\"=>\"TRM Drive\",\"amenity\"=>\"bank\",\"atm\"=>\"yes\"",
    "date": "1631145600"
   },
   "geometry": {
    "type": "Point",
    "coordinates": [
     36.8889468,
     -1.2199404
    ]
   }
  },
  {
   "type": "Feature",
   "id": 6224915432,
   "properties": {
    "name": "National Bank ATM-Thika Highway",
    "other_tags": "\"addr:city\"=>\"Nairobi\",\"addr:street\"=>\"TRM Drive\",\"amenity\"=>\"atm\"",
    "date": "1632787200"
   },
   "geometry": {
    "type": "Point",
    "coordinates": [
     36.88887,
     -1.2199617
    ]
   }
  },
  {
   "type": "Feature",
   "id": 6224915433,
   "properties": {
    "name": "Cake City TRM",
    "other_tags": "\"addr:city\"=>\"Nairobi\",\"addr:street\"=>\"TRM Drive\",\"shop\"=>\"bakery\"",
    "date": "1632700800"
   },
   "geometry": {
    "type": "Point",
    "coordinates": [
     36.8882941,
     -1.2195992
    ]
   }
  },
  {
   "type": "Feature",
   "id": 6224915434,
   "properties": {
    "name": "Subway",
    "other_tags": "\"addr:city\"=>\"Nairobi\",\"addr:street\"=>\"TRM Drive\",\"amenity\"=>\"fast_food\",\"brand\"=>\"Subway\",\"brand:wikidata\"=>\"Q244457\",\"brand:wikipedia\"=>\"en:Subway (restaurant)\",\"cuisine\"=>\"sandwich\",\"takeaway\"=>\"yes\"",
    "date": "1632700800"
   },
   "geometry": {
    "type": "Point",
    "coordinates": [
     36.8880318,
     -1.2193987
    ]
   }
  },
  {
   "type": "Feature",
   "id": 6224915435,
   "properties": {
    "name": "Pizza Planet",
    "other_tags": "\"addr:city\"=>\"Nairobi\",\"addr:street\"=>\"TRM Drive\",\"amenity\"=>\"fast_food\",\"cuisine\"=>\"pizza\"",
    "date": "1631577600"
   },
   "geometry": {
    "type": "Point",
    "coordinates": [
     36.8879038,
     -1.2195928
    ]
   }
  },
  {
   "type": "Feature",
   "id": 6224915436,
   "properties": {
    "name": "Beirut Lebanese Cuisine",
    "other_tags": "\"addr:city\"=>\"Nairobi\",\"addr:street\"=>\"TRM Drive\",\"amenity\"=>\"restaurant\",\"cuisine\"=>\"lebanese\"",
    "date": "1632441600"
   },
   "geometry": {
    "type": "Point",
    "coordinates": [
     36.8881448,
     -1.2195501
    ]
   }
  },
  {
   "type": "Feature",
   "id": 6224915439,
   "properties": {
    "name": "TRM Rooftop Parking",
    "other_tags": "\"addr:city\"=>\"Nairobi\",\"addr:street\"=>\"TRM Drive\",\"amenity\"=>\"parking\",\"supervised\"=>\"yes\"",
    "date": "1632528000"
   },
   "geometry": {
    "type": "Point",
    "coordinates": [
     36.8885416,
     -1.2194414
    ]
   }
  },
  {
   "type": "Feature",
   "id": 6224915444,
   "properties": {
    "name": "Persia Lounge",
    "other_tags": "\"addr:city\"=>\"Nairobi\",\"addr:street\"=>\"TRM Drive\",\"amenity\"=>\"restaurant\"",
    "date": "1632528000"
   },
   "geometry": {
    "type": "Point",
    "coordinates": [
     36.8878185,
     -1.2191556
    ]
   }
  },
  {
   "type": "Feature",
   "id": 6224915445,
   "properties": {
    "name": "Burger King",
    "other_tags": "\"addr:city\"=>\"Nairobi\",\"addr:street\"=>\"TRM Drive\",\"amenity\"=>\"fast_food\",\"brand\"=>\"Burger King\",\"brand:wikidata\"=>\"Q177054\",\"brand:wikipedia\"=>\"en:Burger King\",\"cuisine\"=>\"burger\",\"takeaway\"=>\"yes\"",
    "date": "1630540800"
   },
   "geometry": {
    "type": "Point",
    "coordinates": [
     36.8882195,
     -1.2192452
    ]
   }
  },
  {
   "type": "Feature",
   "id": 6224915446,
   "properties": {
    "name": "Nairobi Sports House Ltd. (Thika Road Mall)",
    "other_tags": "\"addr:city\"=>\"Nairobi\",\"addr:street\"=>\"TRM Drive\",\"shop\"=>\"sports\"",
    "date": "1631664000"
   },
   "geometry": {
    "type": "Point",
    "coordinates": [
     36.8886205,
     -1.2199361
    ]
   }
  },
  {
   "type": "Feature",
   "id": 6224915447,
   "properties": {
    "name": "Cold Stone Creamery",
    "other_tags": "\"addr:city\"=>\"Nairobi\",\"addr:street\"=>\"TRM Drive\",\"amenity\"=>\"ice_cream\",\"brand\"=>\"Cold Stone Creamery\",\"brand:wikidata\"=>\"Q1094923\",\"brand:wikipedia\"=>\"en:Cold Stone Creamery\",\"cuisine\"=>\"ice_cream\"",
    "date": "1631318400"
   },
   "geometry": {
    "type": "Point",
    "coordinates": [
     36.8891046,
     -1.2198892
    ]
   }
  },
  {
   "type": "Feature",
   "id": 6224915464,
   "properties": {
    "name": "TRM Gate",
    "other_tags": "\"addr:city\"=>\"Nairobi\",\"addr:street\"=>\"TRM Drive\"",
    "date": "1632009600"
   },
   "geometry": {
    "type": "Point",
    "coordinates": [
     36.889907,
     -1.2197954
    ]
   }
  },
  {
   "type": "Feature",
   "id": 6247230664,
   "properties": {
    "name": "Tee Tee Motors",
    "other_tags": "\"addr:city\"=>\"Nairobi\",\"addr:street\"=>\"Thika Road\",\"shop\"=>\"car\"",
    "date": "1630713600"
   },
   "geometry": {
    "type": "Point",
    "coordinates": [
     36.8911895,
     -1.2213203
    ]
   }
  },
  {
   "type": "Feature",
   "id": 6249063017,
   "properties": {
    "name": "TRM",
    "other_tags": "\"bus\"=>\"yes\",\"public_transport\"=>\"platform\"",
    "date": "1630627200"
   },
   "geometry": {
    "type": "Point",
    "coordinates": [
     36.8914269,
     -1.2202523
    ]
   }
  },
  {
   "type": "Feature",
   "id": 6249063018,
   "properties": {
    "name": "Roysambu",
    "other_tags": "\"bus\"=>\"yes\",\"public_transport\"=>\"platform\"",
    "date": "1631577600"
   },
   "geometry": {
    "type": "Point",
    "coordinates": [
     36.8910567,
     -1.2204266
    ]
   }
  },
  {
   "type": "Feature",
   "id": 6249063019,
   "properties": {
    "name": "Kasarani Traffic Unit",
    "other_tags": "\"addr:city\"=>\"Nairobi\",\"addr:street\"=>\"Kasarani Mwiki Road\",\"amenity\"=>\"police\"",
    "date": "1632787200"
   },
   "geometry": {
    "type": "Point",
    "coordinates": [
     36.8929128,
     -1.2204025
    ]
   }
  },
  {
   "type": "Feature",
   "id": 6249063027,
   "properties": {
    "name": "Kasarani Police Canteen",
    "other_tags": "\"addr:city\"=>\"Nairobi\",\"addr:street\"=>\"Kasarani Mwiki Road\",\"amenity\"=>\"restaurant\",\"opening_hours\"=>\"Mo-Su 07:00-20:00\"",
    "date": "1631318400"
   },
   "geometry": {
    "type": "Point",
    "coordinates": [
     36.8932534,
     -1.2194774
    ]
   }
  },
  {
   "type": "Feature",
   "id": 6249063028,
   "properties": {
    "name": "Robbiz Bar & Grill",
    "other_tags": "\"addr:city\"=>\"Nairobi\",\"addr:street\"=>\"ICIPE Road\",\"amenity\"=>\"restaurant\"",
    "date": "1632096000"
   },
   "geometry": {
    "type": "Point",
    "coordinates": [
     36.8948923,
     -1.2206653
    ]
   }
  },
  {
   "type": "Feature",
   "id": 6249063035,
   "properties": {
    "name": "Kasarani Group of Schools",
    "other_tags": "\"addr:city\"=>\"Nairobi\",\"addr:street\"=>\"ICIPE Road\",\"amenity\"=>\"school\"",
    "date": "1632528000"
   },
   "geometry": {
    "type": "Point",
    "coordinates": [
     36.8956218,
     -1.2233442
    ]
   }
  },
  {
   "type": "Feature",
   "id": 6249063039,
   "properties": {
    "name": "Icipe's Restaurant",
    "other_tags": "\"addr:city\"=>\"Nairobi\",\"addr:street\"=>\"ICIPE Road\",\"amenity\"=>\"restaurant\"",
    "date": "1630713600"
   },
   "geometry": {
    "type": "Point",
    "coordinates": [
     36.8967537,
     -1.2223628
    ]
   }
  },
  {
   "type": "Feature",
   "id": 6249063486,
   "properties": {
    "name": "Red Office Lounge & Grill",
    "other_tags": "\"addr:city\"=>\"Nairobi\",\"addr:street\"=>\"Kasarani Mwiki Road\",\"amenity\"=>\"restaurant\"",
    "date": "1631491200"
   },
   "geometry": {
    "type": "Point",
    "coordinates": [
     36.8990838,
     -1.2180811
    ]
   }
  },
  {
   "type": "Feature",
   "id": 6249063487,
   "properties": {
    "name": "The Monaco Restaurant and Club",
    "other_tags": "\"addr:city\"=>\"Nairobi\",\"addr:street\"=>\"Kasarani Mwiki Road\",\"amenity\"=>\"restaurant\"",
    "date": "1631059200"
   },
   "geometry": {
    "type": "Point",
    "coordinates": [
     36.8990475,
     -1.2182717
    ]
   }
  },
  {
   "type": "Feature",
   "id": 6249063488,
   "properties": {
    "name": "KWFT",
    "other_tags": "\"addr:city\"=>\"Nairobi\",\"addr:street\"=>\"Kasarani Mwiki Road\",\"amenity\"=>\"bank\",\"atm\"=>\"yes\"",
    "date": "1630540800"
   },
   "geometry": {
    "type": "Point",
    "coordinates": [
     36.8978325,
     -1.2177258
    ]
   }
  },
  {
   "type": "Feature",
   "id": 6249063489,
   "properties": {
    "name": "Kuhura Kanua Pub",
    "other_tags": "\"addr:city\"=>\"Nairobi\",\"addr:street\"=>\"Kasarani Mwiki Road\",\"amenity\"=>\"bar\",\"outdoor_seating\"=>\"no\"",
    "date": "1632009600"
   },
   "geometry": {
    "type": "Point",
    "coordinates": [
     36.897623,
     -1.2177197
    ]
   }
  },
  {
   "type": "Feature",
   "id": 6249063490,
   "properties": {
    "name": "Silk Oak Guest House",
    "other_tags": "\"addr:city\"=>\"Nairobi\",\"addr:street\"=>\"Kasarani Mwiki Road\",\"tourism\"=>\"guest_house\"",
    "date": "1632614400"
   },
   "geometry": {
    "type": "Point",
    "coordinates": [
     36.8973162,
     -1.2184151
    ]
   }
  },
  {
   "type": "Feature",
   "id": 6249063495,
   "properties": {
    "name": "Pewi Foods Kasarani",
    "other_tags": "\"addr:city\"=>\"Nairobi\",\"addr:street\"=>\"Kasarani Mwiki Road\",\"amenity\"=>\"restaurant\"",
    "date": "1632268800"
   },
   "geometry": {
    "type": "Point",
    "coordinates": [
     36.8958128,
     -1.2181145
    ]
   }
  },
  {
   "type": "Feature",
   "id": 6249063496,
   "properties": {
    "name": "Hashi Energy",
    "other_tags": "\"addr:city\"=>\"Nairobi\",\"addr:street\"=>\"Kasarani Mwiki Road\",\"amenity\"=>\"fuel\"",
    "date": "1631750400"
   },
   "geometry": {
    "type": "Point",
    "coordinates": [
     36.8962016,
     -1.2185821
    ]
   }
  },
  {
   "type": "Feature",
   "id": 6249063497,
   "properties": {
    "name": "Kenchic Inn Kasarani Foods Ltd",
    "other_tags": "\"addr:city\"=>\"Nairobi\",\"addr:street\"=>\"Kasarani Mwiki Road\",\"amenity\"=>\"fast_food\"",
    "date": "1632441600"
   },
   "geometry": {
    "type": "Point",
    "coordinates": [
     36.8956063,
     -1.2189495
    ]
   }
  },
  {
   "type": "Feature",
   "id": 6249063498,
   "properties": {
    "name": "Haltons Pharmacy",
    "other_tags": "\"addr:city\"=>\"Nairobi\",\"addr:street\"=>\"Kasarani Mwiki Road\",\"shop\"=>\"chemist\"",
    "date": "1630972800"
   },
   "geometry": {
    "type": "Point",
    "coordinates": [
     36.8954848,
     -1.2186762
    ]
   }
  },
  {
   "type": "Feature",
   "id": 6249063499,
   "properties": {
    "name": "Wabuti Supermarket",
    "other_tags": "\"addr:city\"=>\"Nairobi\",\"addr:street\"=>\"Kasarani Mwiki Road\",\"shop\"=>\"supermarket\"",
    "date": "1630540800"
   },
   "geometry": {
    "type": "Point",
    "coordinates": [
     36.8950718,
     -1.2194778
    ]
   }
  },
  {
   "type": "Feature",
   "id": 6249063507,
   "properties": {
    "name": "Progressive Bar",
    "other_tags": "\"addr:city\"=>\"Nairobi\",\"addr:street\"=>\"Kasarani Mwiki Road\",\"amenity\"=>\"bar\"",
    "date": "1632268800"
   },
   "geometry": {
    "type": "Point",
    "coordinates": [
     36.8965144,
     -1.2167693
    ]
   }
  },
  {
   "type": "Feature",
   "id": 6249063508,
   "properties": {
    "name": "IAT Kasarani Campus",
    "other_tags": "\"addr:city\"=>\"Nairobi\",\"addr:street\"=>\"Kasarani Mwiki Road\",\"amenity\"=>\"college\"",
    "date": "1630454400"
   },
   "geometry": {
    "type": "Point",
    "coordinates": [
     36.8967316,
     -1.2176044
    ]
   }
  },
  {
   "type": "Feature",
   "id": 6249063509,
   "properties": {
    "name": "The Wind Pub & Restaurant",
    "other_tags": "\"addr:city\"=>\"Nairobi\",\"addr:street\"=>\"Kasarani Mwiki Road\",\"amenity\"=>\"restaurant\"",
    "date": "1631318400"
   },
   "geometry": {
    "type": "Point",
    "coordinates": [
     36.8984885,
     -1.2174616
    ]
   }
  },
  {
   "type": "Feature",
   "id": 6249531815,
   "properties": {
    "name": "Gesta Supermarket",
    "other_tags": "\"addr:city\"=>\"Nairobi\",\"addr:street\"=>\"Thika Road\",\"shop\"=>\"supermarket\"",
    "date": "1632009600"
   },
   "geometry": {
    "type": "Point",
    "coordinates": [
     36.8954672,
     -1.2154377
    ]
   }
  },
  {
   "type": "Feature",
   "id": 6773176172,
   "properties": {
    "name": "Andela Kenya",
    "other_tags": "\"description\"=>\"Andela Kenya,\nP.O Box 44437\nNairobi\n\nOff USIU Road\nNairobi\n\nhttps://andela.com/\"",
    "date": "1630800000"
   },
   "geometry": {
    "type": "Point",
    "coordinates": [
     36.885888,
     -1.219095
    ]
   }
  },
  {
   "type": "Feature",
   "id": 6826671309,
   "properties": {
    "name": "Wakalucy Fish Palace",
    "other_tags": "\"addr:city\"=>\"Nairobi\",\"addr:street\"=>\"Kasarani Mwiki Road\",\"amenity\"=>\"restaurant\"",
    "date": "1631836800"
   },
   "geometry": {
    "type": "Point",
    "coordinates": [
     36.8987901,
     -1.2182551
    ]
   }
  },
  {
   "type": "Feature",
   "id": 6826671310,
   "properties": {
    "name": "Family bank",
    "other_tags": "\"addr:city\"=>\"Nairobi\",\"addr:street\"=>\"Powerstar\",\"amenity\"=>\"bank\"",
    "date": "1630454400"
   },
   "geometry": {
    "type": "Point",
    "coordinates": [
     36.8969445,
     -1.21684
    ]
   }
  },
  {
   "type": "Feature",
   "id": 6826671311,
   "properties": {
    "name": "Bull and Bush",
    "other_tags": "\"addr:street\"=>\"Kasarani Mwiki Road\",\"amenity\"=>\"restaurant\"",
    "date": "1630713600"
   },
   "geometry": {
    "type": "Point",
    "coordinates": [
     36.8974519,
     -1.2177846
    ]
   }
  },
  {
   "type": "Feature",
   "id": 6826671312,
   "properties": {
    "name": "Sweet Waters",
    "other_tags": "\"addr:city\"=>\"Nairobi\",\"amenity\"=>\"bar\"",
    "date": "1631145600"
   },
   "geometry": {
    "type": "Point",
    "coordinates": [
     36.8946468,
     -1.218369
    ]
   }
  },
  {
   "type": "Feature",
   "id": 6827309037,
   "properties": {
    "name": "Kass pub",
    "other_tags": "\"addr:city\"=>\"Nairobi\",\"amenity\"=>\"bar\"",
    "date": "1632096000"
   },
   "geometry": {
    "type": "Point",
    "coordinates": [
     36.8897125,
     -1.217923
    ]
   }
  },
  {
   "type": "Feature",
   "id": 6827309038,
   "properties": {
    "name": "Jays Kitchen",
    "other_tags": "\"addr:city\"=>\"Nairobi\",\"amenity\"=>\"cafe\"",
    "date": "1632009600"
   },
   "geometry": {
    "type": "Point",
    "coordinates": [
     36.8892588,
     -1.2171972
    ]
   }
  },
  {
   "type": "Feature",
   "id": 6827309039,
   "properties": {
    "name": "The Bar Chef Mojitos Cocktail",
    "other_tags": "\"addr:city\"=>\"Nairobi\",\"addr:street\"=>\"Lumumba Drive\",\"amenity\"=>\"bar\"",
    "date": "1630454400"
   },
   "geometry": {
    "type": "Point",
    "coordinates": [
     36.8914254,
     -1.2170618
    ]
   }
  },
  {
   "type": "Feature",
   "id": 6827309040,
   "properties": {
    "name": "Bourbon Sports",
    "other_tags": "\"addr:city\"=>\"Nairobi\",\"addr:street\"=>\"Lumumba 1st Avenue\",\"amenity\"=>\"bar\"",
    "date": "1631923200"
   },
   "geometry": {
    "type": "Point",
    "coordinates": [
     36.8888044,
     -1.2157858
    ]
   }
  },
  {
   "type": "Feature",
   "id": 6827309041,
   "properties": {
    "name": "Admart",
    "other_tags": "\"addr:city\"=>\"Nairobi\",\"addr:street\"=>\"Lumumba 1st Avenue\",\"shop\"=>\"supermarket\"",
    "date": "1632096000"
   },
   "geometry": {
    "type": "Point",
    "coordinates": [
     36.8886373,
     -1.2154465
    ]
   }
  },
  {
   "type": "Feature",
   "id": 6827309042,
   "properties": {
    "name": "Roymatt",
    "other_tags": "\"addr:city\"=>\"Nairobi\",\"addr:street\"=>\"Lumumba Drive\",\"shop\"=>\"supermarket\"",
    "date": "1632355200"
   },
   "geometry": {
    "type": "Point",
    "coordinates": [
     36.8879612,
     -1.2158871
    ]
   }
  },
  {
   "type": "Feature",
   "id": 6827309043,
   "properties": {
    "name": "The Cedars",
    "other_tags": "\"addr:city\"=>\"Nairobi\",\"addr:street\"=>\"Lumumba Drive\",\"amenity\"=>\"pub\"",
    "date": "1631232000"
   },
   "geometry": {
    "type": "Point",
    "coordinates": [
     36.8876244,
     -1.215368
    ]
   }
  },
  {
   "type": "Feature",
   "id": 6827309058,
   "properties": {
    "name": "Addis Alem Ethiopian",
    "other_tags": "\"addr:city\"=>\"Nairobi\",\"addr:street\"=>\"TRM Drive\",\"amenity\"=>\"restaurant\"",
    "date": "1631232000"
   },
   "geometry": {
    "type": "Point",
    "coordinates": [
     36.8856947,
     -1.2171935
    ]
   }
  },
  {
   "type": "Feature",
   "id": 6827320496,
   "properties": {
    "name": "Cake City",
    "other_tags": "\"addr:city\"=>\"Nairobi\",\"addr:street\"=>\"TRM Drive\",\"shop\"=>\"bakery\"",
    "date": "1630627200"
   },
   "geometry": {
    "type": "Point",
    "coordinates": [
     36.887751,
     -1.2187994
    ]
   }
  },
  {
   "type": "Feature",
   "id": 6827320497,
   "properties": {
    "name": "Jifiche Grill",
    "other_tags": "\"addr:city\"=>\"Nairobi\",\"addr:street\"=>\"TRM Drive\",\"amenity\"=>\"bar\"",
    "date": "1631836800"
   },
   "geometry": {
    "type": "Point",
    "coordinates": [
     36.8870771,
     -1.2184181
    ]
   }
  },
  {
   "type": "Feature",
   "id": 6827320498,
   "properties": {
    "name": "Tallyho Wines N Spirits",
    "other_tags": "\"addr:city\"=>\"Nairobi\",\"addr:street\"=>\"TRM Drive\",\"shop\"=>\"alcohol\"",
    "date": "1630972800"
   },
   "geometry": {
    "type": "Point",
    "coordinates": [
     36.8866757,
     -1.2182576
    ]
   }
  },
  {
   "type": "Feature",
   "id": 6827320499,
   "properties": {
    "name": "Red Plate Lounge",
    "other_tags": "\"addr:city\"=>\"Nairobi\",\"addr:street\"=>\"TRM Drive\",\"amenity\"=>\"restaurant\"",
    "date": "1632441600"
   },
   "geometry": {
    "type": "Point",
    "coordinates": [
     36.8863058,
     -1.218269
    ]
   }
  },
  {
   "type": "Feature",
   "id": 6827320500,
   "properties": {
    "name": "Empire Cyber",
    "other_tags": "\"addr:city\"=>\"Nairobi\",\"addr:street\"=>\"TRM Drive\",\"amenity\"=>\"cafe\"",
    "date": "1631577600"
   },
   "geometry": {
    "type": "Point",
    "coordinates": [
     36.8857179,
     -1.2182977
    ]
   }
  },
  {
   "type": "Feature",
   "id": 7931341248,
   "properties": {
    "name": "Regional Centre for Mapping of resources for Development",
    "other_tags": "\"addr:housenumber\"=>\"P.O. Box 632-00618 Nairobi, Kenya\",\"addr:postcode\"=>\"00618\",\"office\"=>\"ngo\",\"opening_hours\"=>\"Mo-Fr 08:00-17:00\",\"opening_hours:covid19\"=>\"restricted\",\"phone\"=>\"+254723786161\",\"website\"=>\"https://www.rcmrd.org/\"",
    "date": "1631059200"
   },
   "geometry": {
    "type": "Point",
    "coordinates": [
     36.8920109,
     -1.221435
    ]
   }
  },
  {
   "type": "Feature",
   "id": 8416284519,
   "properties": {
    "name": "Berton Health Specialists Clinic",
    "other_tags": "\"amenity\"=>\"clinic\",\"beds\"=>\"5\",\"healthcare\"=>\"clinic\",\"healthcare:speciality\"=>\"gynaecology;radiology\",\"opening_hours\"=>\"Mo-Fr 08:00-17:00\",\"operational_status\"=>\"operational\",\"operator:type\"=>\"private\"",
    "date": "1631404800"
   },
   "geometry": {
    "type": "Point",
    "coordinates": [
     36.8878275,
     -1.2196396
    ]
   }
  },
  {
   "type": "Feature",
   "id": 8420940517,
   "properties": {
    "name": "Gateway Health Care Thome",
    "other_tags": "\"amenity\"=>\"hospital\",\"beds\"=>\"3\",\"healthcare\"=>\"hospital\",\"opening_hours\"=>\"Mo-Su 08:00-17:00\",\"operational_status\"=>\"operational\"",
    "date": "1632528000"
   },
   "geometry": {
    "type": "Point",
    "coordinates": [
     36.8847124,
     -1.2184586
    ]
   }
  },
  {
   "type": "Feature",
   "id": 8432644718,
   "properties": {
    "name": "Family Access Medical Centre",
    "other_tags": "\"amenity\"=>\"clinic\",\"beds\"=>\"0\",\"healthcare\"=>\"clinic\",\"opening_hours\"=>\"Mo-Su 09:00-17:00\",\"operator:type\"=>\"private\"",
    "date": "1632441600"
   },
   "geometry": {
    "type": "Point",
    "coordinates": [
     36.8935115,
     -1.2145367
    ]
   }
  },
  {
   "type": "Feature",
   "id": 8467852917,
   "properties": {
    "name": "Pan Africa Christian University",
    "other_tags": "\"addr:postcode\"=>\"00200\",\"addr:street\"=>\"Lumumba Drive\",\"amenity\"=>\"school\",\"opening_hours\"=>\"Mo-Fr 08:00-05:00\"",
    "date": "1630627200"
   },
   "geometry": {
    "type": "Point",
    "coordinates": [
     36.885353,
     -1.215875
    ]
   }
  },
  {
   "type": "Feature",
   "id": 8476649017,
   "properties": {
    "name": "Jesse Kay Children's Hospital",
    "other_tags": "\"amenity\"=>\"hospital\",\"beds\"=>\"46\",\"healthcare\"=>\"hospital\",\"opening_hours\"=>\"Mo-Su 09:00-17:00\",\"operational_status\"=>\"operational\",\"operator:type\"=>\"religious\"",
    "date": "1631059200"
   },
   "geometry": {
    "type": "Point",
    "coordinates": [
     36.8860351,
     -1.2161704
    ]
   }
  }
 ]
}
